{"S1": {"location": "Ashok Pillar", "type": "dry-cleaning", "work_load": 1, "lat": 13.0316543, "long": 80.2122049}, "S2": {"location": "Medavakkam", "type": "cold-water-wash", "work_load": 0, "lat": 12.9229928, "long": 80.1882897}, "S3": {"location": "Selaiyur", "type": "hot-water-wash", "work_load": 0, "lat": 12.9187445, "long": 80.1311172}, "S4": {"location": "Aminjikarai", "type": "spot-wash", "work_load": 0, "lat": 13.0721399, "long": 80.2205453}, "S5": {"location": "Anna Nagar", "type": "white-cloth-wash", "work_load": 0, "lat": 13.0427322, "long": 80.2270781}}